,City,Lat,Lng,Max Temp,Humidity,Cloudiness,Wind Speed,Country,Date
0,morant bay,17.8815,-76.4093,28.73,70.0,27.0,4.82,JM,1663163341.0
1,portland,45.5234,-122.6762,17.11,83.0,100.0,0.45,US,1663163341.0
2,batagay,67.6333,134.6333,4.01,97.0,100.0,3.21,RU,1663163344.0
3,los llanos de aridane,28.6585,-17.9182,23.86,91.0,75.0,2.57,ES,1663163350.0
4,chuy,-33.6971,-53.4616,15.41,73.0,15.0,5.18,UY,1663163354.0
5,albany,42.6001,-73.9662,18.71,81.0,3.0,0.89,US,1663163357.0
7,kavieng,-2.5744,150.7967,27.48,75.0,75.0,7.43,PG,1663163358.0
8,tasiilaq,65.6145,-37.6368,3.09,69.0,82.0,2.59,GL,1663163360.0
9,paducah,37.0834,-88.6001,21.17,88.0,40.0,0.0,US,1663163124.0
10,rikitea,-23.1203,-134.9692,21.64,75.0,100.0,5.96,PF,1663163361.0
11,punta arenas,-53.15,-70.9167,3.06,70.0,0.0,4.12,CL,1663163362.0
12,port alfred,-33.5906,26.891,21.77,78.0,0.0,2.68,ZA,1663163134.0
13,ostrovnoy,68.0531,39.5131,11.5,83.0,100.0,3.95,RU,1663163363.0
14,arraial do cabo,-22.9661,-42.0278,24.98,78.0,40.0,11.32,BR,1663163365.0
15,bluff,-46.6,168.3333,8.22,70.0,95.0,11.59,NZ,1663163367.0
16,katsuura,35.1333,140.3,23.88,75.0,100.0,7.9,JP,1663163145.0
18,nikolskoye,59.7035,30.7861,12.94,80.0,100.0,3.15,RU,1663163367.0
19,flin flon,54.7682,-101.865,11.91,76.0,100.0,2.57,CA,1663163368.0
20,okhotsk,59.3833,143.3,6.04,91.0,100.0,6.48,RU,1663163369.0
21,carutapera,-1.195,-46.02,31.06,57.0,60.0,4.51,BR,1663163369.0
22,conneaut,41.9476,-80.5542,21.16,85.0,3.0,5.12,US,1663163370.0
23,kapaa,22.0752,-159.319,25.18,86.0,40.0,3.6,US,1663163370.0
24,omsukchan,62.5333,155.8,-1.83,90.0,18.0,0.68,RU,1663163371.0
26,atuona,-9.8,-139.0333,24.57,71.0,23.0,6.55,PF,1663163372.0
27,nara,34.6851,135.8049,27.62,61.0,95.0,1.83,JP,1663163228.0
29,faanui,-16.4833,-151.75,25.23,73.0,39.0,9.75,PF,1663163373.0
30,timmins,48.4669,-81.3331,6.9,76.0,100.0,4.12,CA,1663163373.0
31,castro,-24.7911,-50.0119,18.36,78.0,100.0,1.48,BR,1663163373.0
32,talnakh,69.4865,88.3972,4.56,86.0,100.0,3.4,RU,1663163340.0
33,shostka,51.863,33.4698,12.77,82.0,100.0,1.84,UA,1663163367.0
34,gorontalo,0.5412,123.0595,24.21,86.0,90.0,1.34,ID,1663163374.0
35,ancud,-41.8697,-73.8203,11.79,79.0,100.0,9.75,CL,1663163375.0
36,busselton,-33.65,115.3333,13.85,66.0,96.0,6.98,AU,1663163376.0
37,sinaloa,25.0,-107.5,23.12,99.0,100.0,1.38,MX,1663163376.0
38,georgetown,5.4112,100.3354,27.97,78.0,20.0,1.54,MY,1663163274.0
40,joniskelis,56.0253,24.1689,17.62,65.0,95.0,5.49,LT,1663163377.0
41,tiarei,-17.5333,-149.3333,22.01,72.0,94.0,9.38,PF,1663163377.0
42,mahebourg,-20.4081,57.7,24.16,69.0,20.0,4.63,MU,1663163378.0
43,ode,7.7899,5.7117,28.34,61.0,51.0,1.96,NG,1663163334.0
44,pevek,69.7008,170.3133,0.94,97.0,100.0,3.02,RU,1663163379.0
45,iqaluit,63.7506,-68.5145,6.85,75.0,75.0,2.57,CA,1663163203.0
47,padang,-0.9492,100.3543,25.03,80.0,100.0,1.26,ID,1663163380.0
48,bambous virieux,-20.3428,57.7575,24.14,69.0,20.0,4.63,MU,1663163380.0
49,arlit,18.7369,7.3853,40.86,8.0,3.0,3.23,NE,1663163381.0
50,phan thiet,10.9333,108.1,26.25,85.0,72.0,5.04,VN,1663163382.0
51,havoysund,70.9963,24.6622,7.13,65.0,100.0,6.6,NO,1663163383.0
52,timiryazevskiy,56.49,84.8769,9.53,85.0,98.0,1.16,RU,1663163383.0
53,vanavara,60.34,102.2797,3.55,86.0,50.0,2.02,RU,1663163384.0
55,barrow,71.2906,-156.7887,1.01,93.0,100.0,9.26,US,1663163384.0
56,cartagena del chaira,1.3349,-74.8429,28.14,65.0,86.0,1.88,CO,1663163384.0
57,codrington,-38.2667,141.9667,12.8,89.0,100.0,9.42,AU,1663163385.0
58,mar del plata,-38.0023,-57.5575,11.16,100.0,100.0,0.45,AR,1663163385.0
59,hobart,-42.8794,147.3294,7.92,75.0,1.0,3.09,AU,1663163379.0
60,hermanus,-34.4187,19.2345,23.22,57.0,4.0,2.64,ZA,1663163386.0
62,cape town,-33.9258,18.4232,24.23,11.0,0.0,4.12,ZA,1663162602.0
64,jamestown,42.097,-79.2353,19.18,78.0,100.0,1.54,US,1663163389.0
65,lagoa,39.05,-27.9833,23.34,88.0,36.0,5.74,PT,1663163389.0
66,ushuaia,-54.8,-68.3,6.81,36.0,0.0,4.12,AR,1663163390.0
67,new norfolk,-42.7826,147.0587,7.72,95.0,2.0,1.31,AU,1663163390.0
68,yerofey pavlovich,53.9667,121.9667,9.31,74.0,100.0,2.61,RU,1663163390.0
69,avarua,-21.2078,-159.775,23.03,83.0,75.0,3.09,CK,1663163390.0
70,rundu,-17.9333,19.7667,33.94,10.0,9.0,4.12,NA,1663163391.0
71,kosh-agach,50.0,88.6667,6.54,40.0,95.0,2.88,RU,1663163391.0
72,mataura,-46.1927,168.8643,8.04,98.0,33.0,1.39,NZ,1663163392.0
73,port elizabeth,-33.918,25.5701,30.05,66.0,0.0,5.14,ZA,1663163392.0
74,mao,39.8885,4.2658,30.31,62.0,20.0,5.14,ES,1663163393.0
75,nhulunbuy,-12.2333,136.7667,25.34,83.0,6.0,2.57,AU,1663163393.0
76,east london,-33.0153,27.9116,22.52,68.0,0.0,7.72,ZA,1663163119.0
77,hilo,19.7297,-155.09,24.6,73.0,75.0,3.09,US,1663163394.0
78,caravelas,-17.7125,-39.2481,28.31,46.0,0.0,4.63,BR,1663163395.0
79,victoria,22.2855,114.1577,32.88,51.0,0.0,2.68,HK,1663163383.0
80,alofi,-19.0595,-169.9187,20.94,94.0,94.0,1.54,NU,1663163396.0
81,natal,-5.795,-35.2094,30.12,66.0,40.0,7.2,BR,1663163396.0
82,lamu,-2.2717,40.902,27.12,77.0,42.0,7.56,KE,1663163396.0
84,capao da canoa,-29.7456,-50.0097,18.39,69.0,7.0,4.17,BR,1663163397.0
85,dakoro,14.5106,6.765,36.32,29.0,7.0,1.83,NE,1663163329.0
86,upernavik,72.7868,-56.1549,5.52,80.0,100.0,3.83,GL,1663163398.0
88,ahipara,-35.1667,173.1667,9.41,75.0,8.0,1.85,NZ,1663163398.0
89,qaanaaq,77.484,-69.3632,1.57,75.0,85.0,1.9,GL,1663163398.0
90,torbay,47.6666,-52.7314,15.16,94.0,100.0,5.14,CA,1663163399.0
91,thompson,55.7435,-97.8558,1.09,93.0,20.0,0.0,CA,1663163400.0
92,hithadhoo,-0.6,73.0833,27.94,70.0,15.0,3.73,MV,1663163401.0
93,kruisfontein,-34.0033,24.7314,28.82,27.0,0.0,5.08,ZA,1663163401.0
94,chiautla,19.5333,-98.8833,16.04,78.0,26.0,1.14,MX,1663163405.0
95,nokaneng,-19.6667,22.2667,32.84,12.0,0.0,5.41,BW,1663163407.0
96,kutoarjo,-7.7169,109.9128,24.47,89.0,25.0,2.09,ID,1663163409.0
97,constitucion,-35.3333,-72.4167,13.9,67.0,21.0,1.45,CL,1663163411.0
98,talara,-4.5772,-81.2719,17.42,82.0,40.0,9.77,PE,1663163411.0
99,shalakusha,62.2247,40.2539,14.54,56.0,57.0,3.75,RU,1663163420.0
100,ouesso,1.6136,16.0517,31.32,49.0,100.0,0.67,CG,1663163422.0
101,ilulissat,69.2167,-51.1,4.33,91.0,100.0,1.91,GL,1663163428.0
102,vestmannaeyjar,63.4427,-20.2734,10.55,76.0,0.0,5.66,IS,1663163428.0
103,mandawar,29.5,78.1333,25.42,82.0,40.0,3.15,IN,1663163434.0
104,honningsvag,70.9821,25.9704,6.86,61.0,100.0,4.12,NO,1663163438.0
105,rawson,-43.3002,-65.1023,17.95,36.0,55.0,5.35,AR,1663163439.0
106,dikson,73.5069,80.5464,3.67,74.0,97.0,6.26,RU,1663163440.0
107,ganzhou,28.8184,115.4327,23.15,73.0,0.0,1.96,CN,1663163441.0
108,deep river,46.1001,-77.4995,16.86,91.0,100.0,3.6,CA,1663163449.0
110,guliston,40.4897,68.7842,23.69,18.0,0.0,4.11,UZ,1663163449.0
111,deputatskiy,69.3,139.9,1.61,73.0,100.0,1.38,RU,1663163450.0
112,te anau,-45.4167,167.7167,1.29,94.0,31.0,0.67,NZ,1663163450.0
113,balkhash,46.844,74.9804,15.24,29.0,0.0,6.52,KZ,1663163450.0
114,narsaq,60.9167,-46.05,11.14,49.0,100.0,0.47,GL,1663163451.0
115,lorengau,-2.0226,147.2712,27.68,77.0,8.0,4.32,PG,1663163451.0
116,tura,25.5198,90.2201,22.73,98.0,100.0,2.05,IN,1663163243.0
117,moron,-34.6534,-58.6198,18.22,59.0,0.0,0.55,AR,1663163452.0
118,tuatapere,-46.1333,167.6833,2.93,91.0,12.0,2.11,NZ,1663163452.0
119,opuwo,-18.0607,13.84,34.21,8.0,5.0,4.55,NA,1663163434.0
120,la primavera,5.4906,-70.4092,28.83,67.0,27.0,2.98,CO,1663163454.0
122,arroyo,41.6096,-4.7969,22.3,60.0,40.0,5.66,ES,1663163455.0
123,mount gambier,-37.8333,140.7667,11.74,95.0,100.0,5.02,AU,1663163456.0
125,linhares,-19.3911,-40.0722,32.21,33.0,0.0,3.32,BR,1663163457.0
126,ugoofaaru,5.6667,73.0,27.47,71.0,89.0,1.75,MV,1663163458.0
127,sao felix do xingu,-6.6447,-51.995,35.5,33.0,11.0,1.98,BR,1663163459.0
128,kalemie,-5.9475,29.1947,27.91,43.0,77.0,2.61,CD,1663163175.0
129,clyde river,70.4692,-68.5914,3.13,100.0,100.0,3.6,CA,1663163459.0
130,pisco,-13.7,-76.2167,16.12,77.0,100.0,4.63,PE,1663163460.0
131,chokurdakh,70.6333,147.9167,3.12,69.0,99.0,3.34,RU,1663163460.0
132,basco,20.4487,121.9702,28.47,81.0,85.0,10.56,PH,1663163462.0
133,boa vista,2.8197,-60.6733,28.99,74.0,40.0,5.66,BR,1663163462.0
134,myaundzha,63.0494,147.1858,1.86,61.0,100.0,0.9,RU,1663163462.0
135,uyemskiy,64.4743,40.8524,16.03,51.0,40.0,3.0,RU,1663163463.0
136,vao,-22.6667,167.4833,20.61,74.0,0.0,5.47,NC,1663163463.0
137,kupang,-10.1667,123.5833,25.8,79.0,100.0,4.73,ID,1663163464.0
138,sembe,1.6481,14.5806,31.68,46.0,78.0,1.15,CG,1663163464.0
139,pietersburg,-23.9045,29.4688,18.47,55.0,20.0,6.17,ZA,1663163290.0
140,kavaratti,10.5669,72.642,27.19,83.0,95.0,5.05,IN,1663163465.0
141,lalibela,12.0333,39.0333,21.66,52.0,76.0,1.34,ET,1663163466.0
142,lavrentiya,65.5833,-171.0,6.67,94.0,100.0,1.0,RU,1663163467.0
143,kodiak,57.79,-152.4072,7.73,93.0,100.0,2.57,US,1663163467.0
144,kaitangata,-46.2817,169.8464,3.62,90.0,20.0,3.76,NZ,1663163468.0
145,vaini,-21.2,-175.2,24.09,94.0,40.0,2.57,TO,1663163469.0
146,bundaberg,-24.85,152.35,16.64,78.0,28.0,2.73,AU,1663163241.0
147,saint-philippe,-21.3585,55.7679,22.77,73.0,85.0,4.1,RE,1663163470.0
148,rocha,-34.4833,-54.3333,15.2,64.0,0.0,4.27,UY,1663163470.0
149,troitskoye,52.9821,84.6757,8.3,53.0,100.0,3.39,RU,1663163471.0
151,mushie,-3.0167,16.9,33.73,39.0,100.0,1.46,CD,1663163224.0
152,abu samrah,35.3029,37.1841,30.18,26.0,0.0,8.65,SY,1663163472.0
153,ponta do sol,32.6667,-17.1,26.35,72.0,31.0,3.05,PT,1663163473.0
156,chhabra,24.6667,76.8333,25.07,92.0,100.0,2.38,IN,1663163261.0
157,bredasdorp,-34.5322,20.0403,26.13,27.0,0.0,5.39,ZA,1663163474.0
158,saint anthony,45.0205,-93.218,17.28,89.0,20.0,3.6,US,1663163475.0
159,kloulklubed,7.0419,134.2556,28.9,73.0,92.0,5.6,PW,1663163475.0
160,labuhan,-6.8844,112.2051,26.8,76.0,9.0,2.06,ID,1663163476.0
161,geraldton,-28.7667,114.6,14.23,82.0,75.0,3.09,AU,1663163476.0
162,tilichiki,60.4667,166.1,4.76,84.0,98.0,3.69,RU,1663163478.0
163,kempen,51.3667,6.4167,15.62,93.0,100.0,2.57,DE,1663163478.0
165,tuy hoa,13.0833,109.3,26.3,86.0,94.0,1.46,VN,1663163480.0
166,saldanha,-33.0117,17.9442,28.03,63.0,3.0,5.44,ZA,1663163480.0
167,saskylakh,71.9167,114.0833,0.0,78.0,97.0,2.54,RU,1663163481.0
168,ekhabi,53.5102,142.9671,10.21,82.0,40.0,5.4,RU,1663163481.0
169,gberia fotombu,9.8833,-11.1667,27.11,73.0,99.0,2.96,SL,1663163482.0
170,severobaykalsk,55.65,109.3167,7.25,65.0,81.0,2.44,RU,1663163483.0
171,kokopo,-4.352,152.2633,25.23,84.0,40.0,4.43,PG,1663163484.0
172,kahului,20.8947,-156.47,25.47,82.0,0.0,5.14,US,1663163484.0
173,lebu,-37.6167,-73.65,12.18,63.0,65.0,1.98,CL,1663163485.0
174,ust-uda,54.1742,103.0304,8.68,67.0,100.0,1.27,RU,1663163486.0
175,ilam,26.9167,87.9167,20.47,96.0,74.0,1.07,NP,1663163449.0
176,ixtapa,20.7,-105.2,26.24,82.0,52.0,0.94,MX,1663163486.0
177,northam,51.0333,-4.2167,19.81,66.0,17.0,4.37,GB,1663163487.0
178,cabedelo,-6.9811,-34.8339,27.37,69.0,31.0,5.87,BR,1663163487.0
179,khatanga,71.9667,102.5,0.61,98.0,100.0,5.18,RU,1663163487.0
180,obihiro,42.9172,143.2044,9.3,84.0,16.0,0.74,JP,1663163248.0
181,terrell,32.736,-96.2753,23.21,71.0,0.0,3.02,US,1663163488.0
182,belmopan,17.25,-88.7667,24.21,94.0,91.0,0.73,BZ,1663163488.0
183,chapais,49.7834,-74.8492,9.88,84.0,100.0,6.2,CA,1663163489.0
184,lata,40.1629,-8.3327,21.62,83.0,97.0,2.78,PT,1663163490.0
185,beringovskiy,63.05,179.3167,6.17,85.0,100.0,3.63,RU,1663163491.0
186,biritiba-mirim,-23.5698,-46.0407,16.88,94.0,100.0,0.4,BR,1663163491.0
187,oranjestad,12.524,-70.027,30.97,66.0,20.0,6.17,AW,1663163492.0
188,airai,-8.9266,125.4092,15.03,73.0,94.0,1.43,TL,1663163492.0
189,mayo,38.8876,-76.5119,21.77,74.0,0.0,5.81,US,1663163493.0
190,butaritari,3.0707,172.7902,27.35,76.0,100.0,6.69,KI,1663163493.0
192,kysyl-syr,63.8986,122.7617,4.78,85.0,71.0,3.43,RU,1663163495.0
193,banyo,6.75,11.8167,23.7,79.0,95.0,2.8,CM,1663163495.0
195,rancho santa margarita,33.6409,-117.6031,19.61,90.0,6.0,0.45,US,1663163496.0
196,puerto ayora,-0.7393,-90.3518,18.08,98.0,100.0,2.68,EC,1663163497.0
197,villa nueva,14.5269,-90.5875,18.95,94.0,75.0,5.14,GT,1663163498.0
199,kirakira,-10.4544,161.9205,26.42,83.0,53.0,4.13,SB,1663163498.0
200,sinnamary,5.3833,-52.95,30.12,63.0,6.0,3.82,GF,1663163499.0
201,barrhead,55.7992,-4.3929,18.8,67.0,21.0,6.71,GB,1663163500.0
202,killybegs,54.6333,-8.45,14.84,73.0,100.0,5.97,IE,1663163500.0
203,liberal,37.0431,-100.921,19.08,63.0,0.0,4.12,US,1663163501.0
204,ribeira grande,38.5167,-28.7,25.22,83.0,40.0,5.66,PT,1663163204.0
206,yellowknife,62.456,-114.3525,5.31,93.0,20.0,2.06,CA,1663163503.0
207,norman wells,65.282,-126.8329,1.02,100.0,75.0,1.03,CA,1663163504.0
208,naryan-mar,67.6713,53.087,10.94,79.0,100.0,7.27,RU,1663163505.0
210,la asuncion,11.0333,-63.8628,28.85,79.0,93.0,5.66,VE,1663163505.0
211,ponta delgada,37.7333,-25.6667,27.5,94.0,75.0,4.12,PT,1663163506.0
212,muddebihal,16.3333,76.1333,24.81,75.0,34.0,8.04,IN,1663163263.0
213,cockburn town,21.4612,-71.1419,28.95,71.0,100.0,7.34,TC,1663163507.0
214,vardo,70.3705,31.1107,6.99,70.0,100.0,3.09,NO,1663163507.0
215,pontianak,-0.0333,109.3333,25.99,94.0,75.0,0.51,ID,1663163508.0
216,hovd,48.0056,91.6419,12.75,39.0,47.0,1.05,MN,1663163211.0
217,cap malheureux,-19.9842,57.6142,23.59,59.0,73.0,3.13,MU,1663163508.0
218,adrar,20.5022,-10.0711,41.58,11.0,9.0,8.48,MR,1663163508.0
219,olafsvik,64.8945,-23.7142,7.84,70.0,100.0,2.02,IS,1663163509.0
220,siparia,10.1333,-61.5,29.88,84.0,25.0,0.45,TT,1663163509.0
221,ginda,30.6945,78.4932,18.64,89.0,92.0,1.34,IN,1663163510.0
222,ketchikan,55.3422,-131.6461,7.26,93.0,0.0,0.0,US,1663163510.0
224,lincoln,40.8,-96.667,22.85,65.0,0.0,2.06,US,1663163216.0
225,porto novo,6.4965,2.6036,28.9,60.0,55.0,4.42,BJ,1663163512.0
226,bandarbeyla,9.4942,50.8122,26.85,75.0,32.0,15.05,SO,1663163512.0
227,bamboo,18.3922,-77.2643,24.13,71.0,91.0,2.23,JM,1663163512.0
228,maloy,61.9353,5.1136,13.74,67.0,100.0,5.52,NO,1663163512.0
229,sioux lookout,50.1001,-91.917,4.04,100.0,40.0,0.0,CA,1663163513.0
230,sangueya,10.7,-14.3667,26.34,83.0,99.0,3.57,GN,1663163513.0
231,ariano irpino,41.1489,15.0833,29.99,49.0,0.0,7.2,IT,1663163514.0
232,port blair,11.6667,92.75,27.02,83.0,75.0,2.06,IN,1663163282.0
233,srednekolymsk,67.45,153.6833,2.44,70.0,10.0,3.45,RU,1663163514.0
234,batemans bay,-35.7167,150.1833,12.28,92.0,96.0,2.04,AU,1663163515.0
235,tela,15.7833,-87.45,23.97,94.0,75.0,0.0,HN,1663163516.0
236,cherskiy,68.75,161.3,2.01,91.0,100.0,2.57,RU,1663163517.0
237,paamiut,61.994,-49.6678,6.81,72.0,100.0,2.34,GL,1663163517.0
238,baoning,25.3378,110.026,26.92,74.0,0.0,2.0,CN,1663163518.0
239,cumra,37.5732,32.7745,24.8,25.0,0.0,3.06,TR,1663163518.0
240,shu,43.5983,73.7614,18.87,25.0,0.0,9.11,KZ,1663163519.0
241,husavik,66.0449,-17.3389,6.07,75.0,95.0,4.24,IS,1663163520.0
243,tazovskiy,67.4667,78.7,6.36,94.0,100.0,3.96,RU,1663163522.0
244,nyrob,60.733,56.7202,10.91,68.0,20.0,1.52,RU,1663163522.0
245,tuktoyaktuk,69.4541,-133.0374,1.0,86.0,100.0,8.23,CA,1663163523.0
247,afsin,38.2477,36.914,25.13,16.0,0.0,3.22,TR,1663163525.0
248,shache,38.4167,77.2406,25.53,19.0,8.0,2.3,CN,1663163525.0
249,luderitz,-26.6481,15.1594,18.22,63.0,4.0,5.46,NA,1663163455.0
250,antonovo,43.15,26.1667,25.43,27.0,37.0,3.48,BG,1663163526.0
251,bonthe,7.5264,-12.505,25.78,86.0,100.0,6.12,SL,1663163527.0
252,isangel,-19.55,169.2667,23.03,88.0,9.0,3.36,VU,1663163527.0
253,rumphi,-11.0186,33.8575,24.53,35.0,88.0,5.54,MW,1663163327.0
254,cap-chat,49.1001,-66.6821,15.0,94.0,100.0,1.54,CA,1663163528.0
255,vaitape,-16.5167,-151.75,25.19,74.0,36.0,9.77,PF,1663163529.0
256,tyulgan,52.3405,56.166,18.34,30.0,92.0,6.42,RU,1663163529.0
257,pangkalanbuun,-2.6833,111.6167,23.3,96.0,97.0,0.96,ID,1663163530.0
258,muros,42.7762,-9.0603,22.27,80.0,76.0,7.56,ES,1663163307.0
259,sitka,57.0531,-135.33,13.94,72.0,75.0,3.6,US,1663163531.0
260,hasaki,35.7333,140.8333,22.38,74.0,100.0,7.98,JP,1663163237.0
261,zapolyarnyy,69.4154,30.8136,6.6,95.0,100.0,6.94,RU,1663163532.0
262,longyearbyen,78.2186,15.6401,1.91,80.0,75.0,1.03,SJ,1663163344.0
263,leningradskiy,69.3833,178.4167,1.8,99.0,100.0,1.71,RU,1663163532.0
264,beloha,-25.1667,45.05,20.46,62.0,97.0,7.37,MG,1663163326.0
265,hualmay,-11.0964,-77.6139,16.53,77.0,48.0,3.26,PE,1663163533.0
266,filadelfia,39.9523,-75.1638,21.7,69.0,20.0,6.69,US,1663163534.0
267,tibati,6.4667,12.6333,24.48,73.0,100.0,1.36,CM,1663163534.0
269,kharian,32.8149,73.8636,29.61,60.0,0.0,1.39,PK,1663163535.0
270,contamana,-7.3333,-75.0167,31.28,50.0,22.0,1.57,PE,1663163535.0
271,jacareacanga,-6.2222,-57.7528,34.53,37.0,78.0,2.16,BR,1663163536.0
272,zinder,13.8072,8.9881,33.98,55.0,20.0,3.6,NE,1663163536.0
273,san jose de ocoa,18.55,-70.5,28.01,58.0,100.0,1.09,DO,1663163536.0
274,provideniya,64.3833,-173.3,7.77,94.0,100.0,1.71,RU,1663163537.0
275,hauterive,46.0901,3.4459,25.24,79.0,95.0,0.67,FR,1663163537.0
276,hay river,60.8156,-115.7999,4.99,81.0,40.0,2.06,CA,1663163538.0
277,severo-kurilsk,50.6789,156.125,9.8,88.0,9.0,6.33,RU,1663163539.0
278,andrelandia,-21.7397,-44.3092,26.51,29.0,99.0,2.27,BR,1663163539.0
280,saint-francois,46.4154,3.9054,24.69,69.0,75.0,5.14,FR,1663163540.0
281,pangnirtung,66.1451,-65.7125,6.0,93.0,100.0,0.0,CA,1663163541.0
282,laguna,38.421,-121.4238,15.99,85.0,0.0,4.12,US,1663163541.0
283,bermejo,-32.8833,-68.8,13.95,30.0,0.0,2.57,AR,1663163542.0
284,mogadishu,2.0371,45.3438,27.93,74.0,20.0,10.29,SO,1663163525.0
285,poum,-20.2333,164.0167,23.24,75.0,81.0,6.91,NC,1663163543.0
286,broken hill,-31.95,141.4333,15.24,68.0,75.0,5.13,AU,1663163543.0
287,san miguel,13.4833,-88.1833,23.38,96.0,100.0,0.59,SV,1663163543.0
288,lompoc,34.6391,-120.4579,16.12,95.0,20.0,2.06,US,1663163544.0
289,aksu,41.1231,80.2644,25.73,23.0,0.0,1.92,CN,1663163544.0
290,bethel,41.3712,-73.414,20.86,72.0,0.0,2.06,US,1663163544.0
291,turukhansk,65.8167,87.9833,5.62,95.0,100.0,2.93,RU,1663163545.0
292,kidal,18.4411,1.4078,39.51,15.0,88.0,1.19,ML,1663163545.0
293,vila velha,-20.3297,-40.2925,29.97,59.0,0.0,5.66,BR,1663163546.0
294,meulaboh,4.1363,96.1285,26.14,80.0,100.0,0.75,ID,1663163546.0
295,nanortalik,60.1432,-45.2371,8.35,72.0,79.0,0.12,GL,1663163547.0
296,kodinsk,58.6881,99.1844,6.44,66.0,94.0,0.93,RU,1663163376.0
297,whitehorse,60.7161,-135.0538,10.43,62.0,40.0,8.75,CA,1663163548.0
298,ramgarh,23.6333,85.5167,27.03,93.0,100.0,2.51,IN,1663163549.0
299,saint-pierre,-21.3393,55.4781,22.82,78.0,40.0,8.75,RE,1663163549.0
300,miles city,46.4083,-105.8406,16.54,67.0,0.0,3.09,US,1663163550.0
301,fukuma,33.7667,130.4667,29.05,75.0,18.0,3.9,JP,1663163550.0
302,gat,31.61,34.7642,29.67,12.0,0.0,5.87,IL,1663163551.0
303,concordia,-31.393,-58.0209,15.04,77.0,0.0,4.12,AR,1663163551.0
305,esil,51.9556,66.4042,13.76,42.0,17.0,1.5,KZ,1663163552.0
306,hofn,64.2539,-15.2082,11.01,58.0,20.0,7.72,IS,1663163553.0
307,marrakesh,31.6315,-8.0083,28.04,47.0,40.0,2.06,MA,1663163553.0
309,shelburne,44.0787,-80.2041,18.2,93.0,48.0,6.86,CA,1663163554.0
310,bengkulu,-3.8004,102.2655,24.97,88.0,100.0,3.39,ID,1663163555.0
311,chumikan,54.7183,135.315,10.91,56.0,67.0,5.64,RU,1663163555.0
312,vallenar,-28.5708,-70.7581,19.7,25.0,0.0,1.2,CL,1663163555.0
313,dongsheng,39.8161,109.9776,17.06,54.0,3.0,3.99,CN,1663163556.0
314,chernyanka,50.9409,37.8069,9.9,94.0,100.0,2.8,RU,1663163557.0
315,iskateley,67.6803,53.1512,10.89,79.0,100.0,7.25,RU,1663163557.0
316,bulgan,48.8125,103.5347,8.25,83.0,100.0,2.08,MN,1663163558.0
317,tiksi,71.6872,128.8694,2.09,98.0,100.0,2.84,RU,1663163558.0
318,amuntai,-2.4177,115.2494,22.78,95.0,100.0,0.7,ID,1663163558.0
319,esperance,-33.8667,121.9,11.91,79.0,28.0,13.94,AU,1663163559.0
320,valleyview,55.0667,-117.2859,2.02,100.0,0.0,2.57,CA,1663163560.0
321,vila franca do campo,37.7167,-25.4333,27.33,81.0,22.0,4.83,PT,1663163560.0
322,roald,62.5833,6.1333,14.31,76.0,75.0,4.63,NO,1663163561.0
323,kieta,-6.2167,155.6333,25.26,84.0,38.0,1.52,PG,1663163561.0
324,guerrero negro,27.9769,-114.0611,22.15,80.0,0.0,2.09,MX,1663163562.0
325,great falls,47.5002,-111.3008,14.27,94.0,100.0,0.0,US,1663163563.0
326,hammerfest,70.6634,23.6821,7.25,70.0,75.0,5.14,NO,1663163563.0
327,lazaro cardenas,17.9583,-102.2,25.47,83.0,100.0,1.79,MX,1663163565.0
328,susanville,40.4163,-120.653,3.91,75.0,0.0,0.0,US,1663163565.0
329,ternate,0.8,127.4,26.96,78.0,15.0,1.92,ID,1663163566.0
330,namibe,-15.1961,12.1522,25.35,65.0,0.0,3.09,AO,1663163566.0
331,tanete,-3.9443,119.7848,24.86,83.0,100.0,3.52,ID,1663163567.0
332,aktau,43.65,51.2,24.32,52.0,0.0,6.96,KZ,1663163568.0
333,ewo,-0.8725,14.8206,33.88,37.0,38.0,1.43,CG,1663163568.0
334,santo andre,-23.6639,-46.5383,16.76,99.0,75.0,2.57,BR,1663163569.0
335,liepaja,56.5419,21.0367,16.99,77.0,20.0,7.2,LV,1663163570.0
336,genhe,50.7833,121.5167,11.0,69.0,98.0,2.12,CN,1663163570.0
337,anadyr,64.75,177.4833,5.28,86.0,75.0,2.0,RU,1663163571.0
338,tono,39.3167,141.5333,15.21,88.0,97.0,0.45,JP,1663163560.0
339,urussanga,-28.5178,-49.3208,19.63,60.0,100.0,2.39,BR,1663163571.0
343,carnarvon,-24.8667,113.6333,18.24,64.0,15.0,11.22,AU,1663163472.0
344,mayumba,-3.432,10.6554,25.41,75.0,78.0,4.43,GA,1663163573.0
345,baoqing,46.3317,132.2111,11.98,80.0,89.0,2.07,CN,1663163574.0
346,flinders,-34.5833,150.8552,14.1,77.0,84.0,1.79,AU,1663163356.0
347,eureka,40.8021,-124.1637,12.18,93.0,81.0,1.98,US,1663163574.0
348,khakhea,-24.6895,23.494,28.81,19.0,0.0,5.32,BW,1663163575.0
349,aykhal,66.0,111.5,0.82,92.0,76.0,6.02,RU,1663163575.0
350,goure,13.9835,10.2704,35.57,29.0,94.0,1.25,NE,1663163575.0
351,kalmunai,7.4167,81.8167,28.28,72.0,50.0,6.9,LK,1663163576.0
352,gbadolite,4.2833,21.0167,27.1,82.0,98.0,0.91,CD,1663163576.0
353,margate,51.3813,1.3862,20.39,75.0,91.0,2.24,GB,1663163576.0
354,touros,-5.1989,-35.4608,29.08,63.0,38.0,7.9,BR,1663163577.0
355,sabang,5.8933,95.3214,27.98,77.0,39.0,5.39,ID,1663163578.0
356,sao filipe,14.8961,-24.4956,27.4,77.0,68.0,1.84,CV,1663163578.0
357,shebunino,46.4339,141.8603,11.68,75.0,0.0,2.07,RU,1663163579.0
358,chirongui,-12.9319,45.1483,26.96,76.0,65.0,3.01,YT,1663163579.0
359,esperantinopolis,-4.8667,-44.7083,36.33,32.0,18.0,1.57,BR,1663163580.0
360,sainte-rose,16.3324,-61.6979,30.02,70.0,75.0,4.12,GP,1663163581.0
361,coquimbo,-29.9533,-71.3436,13.85,67.0,0.0,1.54,CL,1663163581.0
362,port hardy,50.6996,-127.4199,10.1,93.0,100.0,1.03,CA,1663163582.0
363,soledade,-28.8183,-52.5103,15.33,62.0,58.0,4.02,BR,1663163582.0
364,mpika,-11.8343,31.4529,25.7,25.0,23.0,4.99,ZM,1663163357.0
365,bousso,10.4795,16.7117,31.63,50.0,87.0,1.07,TD,1663163583.0
366,emerald,-23.5333,148.1667,17.41,71.0,18.0,6.4,AU,1663163584.0
367,boksitogorsk,59.474,33.8485,9.78,91.0,100.0,3.36,RU,1663163584.0
368,kembe,4.6228,21.8865,27.72,71.0,100.0,1.5,CF,1663163585.0
369,kirkuk,35.4681,44.3922,36.17,13.0,0.0,6.37,IQ,1663163586.0
370,comodoro rivadavia,-45.8667,-67.5,16.92,39.0,40.0,7.72,AR,1663163586.0
371,shingu,33.7333,135.9833,25.34,90.0,95.0,3.15,JP,1663163324.0
372,hami,42.8,93.45,23.96,19.0,0.0,3.12,CN,1663163586.0
373,alice springs,-23.7,133.8833,23.75,33.0,52.0,4.12,AU,1663163587.0
374,riyadh,24.6877,46.7219,43.08,7.0,4.0,3.72,SA,1663163489.0
375,hamilton,39.1834,-84.5333,20.65,90.0,40.0,0.45,US,1663163588.0
376,ulaanbaatar,47.9077,106.8832,15.07,58.0,40.0,2.0,MN,1663163498.0
377,naze,28.3667,129.4833,27.51,84.0,34.0,8.21,JP,1663163589.0
378,noumea,-22.2763,166.4572,23.33,99.0,93.0,2.24,NC,1663162944.0
379,neuquen,-38.9516,-68.0591,9.94,57.0,0.0,2.06,AR,1663163590.0
380,qaqortoq,60.7167,-46.0333,9.97,59.0,100.0,2.0,GL,1663163591.0
381,broome,42.2506,-75.833,17.48,82.0,0.0,1.79,US,1663163591.0
382,fraga,41.5229,0.3489,28.1,37.0,100.0,1.01,ES,1663163592.0
383,junin,-34.5838,-60.9433,19.2,38.0,0.0,2.73,AR,1663163593.0
384,lethem,3.3803,-59.7968,30.96,58.0,36.0,2.98,GY,1663163593.0
385,stokmarknes,68.5646,14.9108,8.99,87.0,75.0,5.66,NO,1663163593.0
387,canon city,38.441,-105.2424,21.12,47.0,0.0,2.68,US,1663163594.0
388,kargasok,59.0556,80.8572,7.83,81.0,100.0,2.8,RU,1663163595.0
389,katobu,-4.9408,122.5276,22.89,91.0,100.0,1.77,ID,1663163595.0
390,nelson,-41.2833,173.2833,5.72,77.0,7.0,0.45,NZ,1663163408.0
391,jalu,29.0331,21.5482,32.92,18.0,0.0,5.35,LY,1663163596.0
392,leh,34.1667,77.5833,15.85,36.0,80.0,2.5,IN,1663163597.0
393,peniche,39.3558,-9.3811,23.93,90.0,29.0,4.54,PT,1663163597.0
394,cabo san lucas,22.8909,-109.9124,28.06,70.0,3.0,0.89,MX,1663163597.0
395,huron,41.1501,-82.5499,17.84,94.0,15.0,3.3,US,1663163598.0
396,sola,-13.8833,167.55,26.46,78.0,21.0,6.54,VU,1663163599.0
397,hervey bay,-25.2986,152.8535,15.57,83.0,58.0,4.92,AU,1663163599.0
398,abu kamal,34.4506,40.9171,34.4,23.0,0.0,5.0,SY,1663163600.0
399,evensk,61.95,159.2333,4.52,64.0,8.0,2.75,RU,1663163600.0
401,san patricio,28.017,-97.5169,28.92,69.0,3.0,3.03,US,1663163601.0
402,senekal,-28.3197,27.6208,23.74,23.0,5.0,3.71,ZA,1663163602.0
403,fortuna,40.5982,-124.1573,12.03,92.0,95.0,1.83,US,1663163602.0
404,bilibino,68.0546,166.4372,1.11,98.0,100.0,0.85,RU,1663163603.0
405,yaan,7.3833,8.5667,28.46,66.0,96.0,1.04,NG,1663163603.0
406,murchison,-41.8,172.3333,0.2,96.0,21.0,0.1,NZ,1663163603.0
407,tatarskaya kargala,51.9495,55.1731,22.01,23.0,97.0,6.78,RU,1663163604.0
409,bageshwar,29.85,79.7667,20.97,95.0,100.0,1.27,IN,1663163605.0
410,puerto escondido,15.85,-97.0667,26.2,79.0,86.0,0.33,MX,1663163606.0
411,farah,32.5,62.5,29.38,6.0,0.0,2.73,AF,1663163606.0
412,singuilucan,19.9667,-98.5167,10.14,87.0,97.0,1.5,MX,1663163607.0
413,cidreira,-30.1811,-50.2056,18.03,71.0,8.0,4.59,BR,1663163607.0
414,pathein,16.7833,94.7333,24.85,91.0,100.0,3.42,MM,1663163607.0
416,pedreiras,-4.5688,-44.6003,36.17,33.0,13.0,1.63,BR,1663163608.0
418,bathsheba,13.2167,-59.5167,31.34,62.0,40.0,7.72,BB,1663163610.0
420,grand gaube,-20.0064,57.6608,24.22,59.0,68.0,3.13,MU,1663163611.0
421,dakar,14.6937,-17.4441,28.49,78.0,40.0,4.12,SN,1663163611.0
422,nioro,13.35,-15.75,25.36,82.0,100.0,0.68,GM,1663163612.0
423,orje,59.4802,11.6602,16.87,46.0,85.0,2.78,NO,1663163612.0
424,dwarka,22.2394,68.9678,27.96,88.0,100.0,7.43,IN,1663163612.0
425,perbaungan,3.5679,98.956,26.06,85.0,97.0,1.24,ID,1663163613.0
426,bouillante,16.1304,-61.7692,29.57,66.0,64.0,4.28,GP,1663163613.0
427,norsup,-16.0667,167.3833,25.38,82.0,35.0,2.73,VU,1663163613.0
428,creston,41.0586,-94.3614,15.98,94.0,0.0,2.06,US,1663163614.0
429,coihaique,-45.5752,-72.0662,7.34,100.0,100.0,1.54,CL,1663163614.0
430,souillac,-20.5167,57.5167,24.21,69.0,20.0,4.63,MU,1663163614.0
431,gabu,12.2833,-14.2167,23.42,91.0,100.0,1.18,GW,1663163615.0
432,maues,-3.3836,-57.7186,34.05,40.0,5.0,2.31,BR,1663163615.0
433,pio xii,-3.8325,-45.1525,35.04,38.0,5.0,2.4,BR,1663163616.0
434,porto velho,-8.7619,-63.9039,29.03,65.0,0.0,3.6,BR,1663163616.0
436,tando muhammad khan,25.123,68.5358,30.14,57.0,97.0,4.53,PK,1663163617.0
437,bitung,1.4451,125.1824,24.47,82.0,93.0,6.9,ID,1663163618.0
438,hambantota,6.1241,81.1185,27.19,89.0,20.0,4.63,LK,1663163472.0
439,springdale,36.1867,-94.1288,20.87,76.0,0.0,2.57,US,1663163619.0
440,suntar,62.1444,117.6319,7.35,71.0,99.0,4.3,RU,1663163619.0
441,san rafael,-34.6177,-68.3301,19.87,20.0,0.0,6.01,AR,1663163620.0
443,bojonegoro,-7.1502,111.8817,26.37,72.0,45.0,3.89,ID,1663163614.0
444,yoichi,43.2039,140.7703,15.87,64.0,100.0,0.9,JP,1663163321.0
445,solano,38.2333,-121.9511,16.4,81.0,0.0,6.17,US,1663163621.0
447,stryn,61.9045,6.7226,12.86,92.0,100.0,1.81,NO,1663163622.0
448,san cristobal,7.7669,-72.225,22.1,51.0,93.0,2.11,VE,1663163622.0
449,diu,20.7141,70.9822,26.12,91.0,100.0,5.58,IN,1663163622.0
450,ipameri,-17.7219,-48.1597,34.4,15.0,5.0,4.19,BR,1663163623.0
451,surab,28.4914,66.2585,24.57,15.0,0.0,3.92,PK,1663163623.0
452,punta alta,-38.8759,-62.0736,17.29,42.0,4.0,3.69,AR,1663163624.0
453,namatanai,-3.6667,152.4333,26.37,80.0,63.0,4.27,PG,1663163624.0
454,santa rosa,14.3122,121.1114,26.73,93.0,96.0,3.55,PH,1663163435.0
455,awjilah,29.1081,21.2869,32.65,19.0,0.0,5.31,LY,1663163625.0
457,kudahuvadhoo,2.6708,72.8944,27.55,65.0,47.0,1.19,MV,1663163625.0
458,kattivakkam,13.2167,80.3167,31.05,76.0,92.0,6.75,IN,1663163626.0
459,grindavik,63.8424,-22.4338,9.26,71.0,0.0,5.66,IS,1663163626.0
460,korla,41.7597,86.1469,25.11,19.0,0.0,3.23,CN,1663163627.0
461,west monroe,32.5185,-92.1476,19.16,84.0,0.0,1.76,US,1663163627.0
462,sucre,-19.0333,-65.2627,13.15,64.0,90.0,2.86,BO,1663163628.0
463,wiwili,13.6268,-85.8254,24.26,92.0,94.0,0.2,NI,1663163628.0
464,port-gentil,-0.7193,8.7815,27.98,69.0,75.0,6.69,GA,1663163628.0
465,freeport,40.6576,-73.5832,22.38,64.0,8.0,2.24,US,1663163629.0
466,antipino,57.1068,65.7576,14.19,54.0,100.0,1.63,RU,1663163629.0
467,atambua,-9.1061,124.8925,22.57,86.0,64.0,2.58,ID,1663163630.0
468,praia,14.9215,-23.5087,28.3,83.0,20.0,4.63,CV,1663163630.0
469,klaksvik,62.2266,-6.589,10.51,83.0,17.0,10.07,FO,1663163631.0
470,nouadhibou,20.931,-17.0347,25.99,69.0,0.0,6.17,MR,1663163631.0
471,la plata,-34.9215,-57.9545,16.13,53.0,0.0,0.56,AR,1663163632.0
472,marawi,7.9986,124.2928,21.45,93.0,100.0,1.93,PH,1663163633.0
473,tunga,11.2456,124.7517,25.42,89.0,63.0,1.24,PH,1663163633.0
474,saint-georges,12.0564,-61.7485,29.82,70.0,20.0,7.2,GD,1663163634.0
475,ust-maya,60.4167,134.5333,3.49,87.0,100.0,6.23,RU,1663163634.0
476,calderitas,18.55,-88.25,27.19,86.0,100.0,4.71,MX,1663163635.0
477,lasa,46.6166,10.7002,20.38,84.0,97.0,2.62,IT,1663163635.0
478,yeppoon,-23.1333,150.7333,16.88,75.0,1.0,4.2,AU,1663163636.0
479,townsville,-19.25,146.8,20.49,78.0,75.0,3.6,AU,1663163460.0
480,mochudi,-24.4167,26.15,24.33,33.0,9.0,5.66,BW,1663163429.0
481,vitoria de santo antao,-8.1181,-35.2914,27.07,65.0,76.0,4.86,BR,1663163636.0
482,san luis,-33.295,-66.3356,20.14,16.0,0.0,7.27,AR,1663163564.0
483,faya,18.3851,42.4509,30.29,31.0,100.0,1.06,SA,1663163637.0
484,ca mau,9.1769,105.15,25.71,88.0,34.0,2.04,VN,1663163431.0
485,yeniseysk,58.4497,92.1703,6.79,70.0,92.0,0.42,RU,1663163638.0
486,aklavik,68.2191,-135.0107,5.0,87.0,100.0,2.57,CA,1663163638.0
488,penha,-26.7694,-48.6458,17.93,88.0,75.0,1.54,BR,1663163639.0
489,dukat,62.55,155.55,-2.32,92.0,16.0,0.83,RU,1663163639.0
490,fayaoue,-20.65,166.5333,23.37,76.0,29.0,6.42,NC,1663163640.0
491,atar,20.5169,-13.0499,40.67,17.0,35.0,6.99,MR,1663163640.0
492,imbituba,-28.24,-48.6703,18.25,69.0,100.0,5.3,BR,1663163640.0
493,henties bay,-22.116,14.2845,16.57,81.0,26.0,4.62,NA,1663163640.0
494,paripiranga,-10.6875,-37.8617,27.85,47.0,31.0,3.67,BR,1663163641.0
495,makat,47.6469,53.3463,25.65,19.0,100.0,9.06,KZ,1663163642.0
496,coaldale,49.7167,-112.6185,9.53,93.0,20.0,4.12,CA,1663163642.0
497,apia,-13.8333,-171.7667,24.95,81.0,32.0,9.57,WS,1663163537.0
498,ballina,-28.8667,153.5667,13.34,97.0,75.0,0.94,AU,1663163496.0
499,stawell,-37.05,142.7667,11.0,96.0,100.0,7.39,AU,1663163643.0
500,zhezkazgan,47.8043,67.7144,16.99,20.0,0.0,6.0,KZ,1663163644.0
501,wau,7.7029,27.9953,26.97,76.0,100.0,2.01,SS,1663163644.0
502,dingle,10.9995,122.6711,25.29,87.0,59.0,2.16,PH,1663163644.0
503,marsh harbour,26.5412,-77.0636,29.25,67.0,32.0,4.53,BS,1663163645.0
504,sur,22.5667,59.5289,33.3,50.0,9.0,1.73,OM,1663163646.0
505,san vicente de canete,-13.0751,-76.3835,16.34,78.0,91.0,1.46,PE,1663163646.0
507,itarema,-2.9248,-39.9167,31.08,56.0,47.0,6.84,BR,1663163647.0
508,chiredzi,-21.05,31.6667,24.24,42.0,88.0,3.88,ZW,1663163648.0
509,xichang,27.8964,102.2634,20.03,88.0,100.0,0.62,CN,1663163648.0
510,umm kaddadah,13.6017,26.6876,32.08,41.0,90.0,2.11,SD,1663163648.0
511,rorvik,64.8621,11.2373,13.99,88.0,75.0,4.12,NO,1663163649.0
512,phra pradaeng,13.6585,100.5336,29.99,81.0,97.0,3.81,TH,1663163649.0
513,usinsk,65.9939,57.5281,10.97,81.0,98.0,5.52,RU,1663163407.0
514,linguere,15.3953,-15.1193,28.43,66.0,100.0,3.68,SN,1663163649.0
515,churapcha,62.0025,132.4325,2.62,76.0,83.0,8.52,RU,1663163650.0
516,fort nelson,58.8053,-122.7002,3.77,93.0,20.0,2.06,CA,1663163651.0
517,doka,13.5167,35.7667,28.88,64.0,55.0,1.18,SD,1663163651.0
518,ponca city,36.707,-97.0856,22.72,58.0,58.0,3.58,US,1663163651.0
519,wanning,18.8003,110.3967,26.75,84.0,34.0,2.07,CN,1663163652.0
520,port hedland,-20.3167,118.5667,21.03,68.0,0.0,4.12,AU,1663163652.0
521,acari,-15.4311,-74.6158,18.9,64.0,66.0,3.15,PE,1663163653.0
522,manavalakurichi,8.1333,77.3,26.17,84.0,82.0,5.22,IN,1663163653.0
524,talcahuano,-36.7167,-73.1167,8.82,81.0,0.0,3.09,CL,1663163654.0
525,yar-sale,66.8333,70.8333,7.76,77.0,87.0,4.45,RU,1663163654.0
527,yulara,-25.2406,130.9889,19.92,35.0,0.0,6.11,AU,1663163656.0
528,frontera,26.9333,-101.45,24.62,69.0,2.0,0.89,MX,1663163656.0
529,launceston,-41.45,147.1667,5.64,84.0,46.0,2.06,AU,1663163657.0
530,mandera,3.9366,41.867,34.65,28.0,96.0,7.93,KE,1663163657.0
531,rovaniemi,66.5,25.7167,11.67,93.0,100.0,4.12,FI,1663163658.0
532,limbe,4.0242,9.2149,26.25,81.0,100.0,2.66,CM,1663163658.0
533,mount isa,-20.7333,139.5,16.87,42.0,0.0,0.0,AU,1663163658.0
534,acandi,8.5063,-77.2778,25.48,91.0,95.0,1.05,CO,1663163658.0
535,dzhebariki-khaya,62.2167,135.8,4.36,98.0,100.0,3.9,RU,1663163659.0
536,kisangani,0.5167,25.2,27.23,68.0,100.0,1.13,CD,1663163659.0
537,balikpapan,-1.2675,116.8289,24.9,84.0,20.0,2.53,ID,1663163616.0
538,muana,-1.5283,-49.2167,32.48,50.0,10.0,3.35,BR,1663163659.0
539,hohhot,40.8106,111.6522,18.16,55.0,0.0,2.0,CN,1663163504.0
540,sahuaripa,29.05,-109.2333,22.96,83.0,0.0,1.36,MX,1663163660.0
541,piterka,50.6803,47.4454,14.35,86.0,100.0,5.9,RU,1663163660.0
543,shimoda,34.6667,138.95,23.39,83.0,82.0,7.81,JP,1663163508.0
544,teguldet,57.3064,88.1667,6.38,70.0,92.0,1.01,RU,1663163661.0
545,vaasa,63.096,21.6158,13.49,82.0,40.0,5.66,FI,1663163661.0
546,abu dhabi,24.4667,54.3667,39.06,53.0,0.0,4.12,AE,1663163552.0
547,sigayevo,56.4216,53.7757,14.08,60.0,100.0,4.25,RU,1663163662.0
548,junction city,39.0286,-96.8314,23.0,66.0,0.0,1.34,US,1663163663.0
549,sao joao da barra,-21.6403,-41.0511,27.05,62.0,6.0,6.05,BR,1663163663.0
550,buraydah,26.326,43.975,42.25,7.0,5.0,3.54,SA,1663163664.0
551,urla,38.3229,26.764,30.22,28.0,0.0,5.98,TR,1663163664.0
552,huanren,41.2647,125.3667,17.07,98.0,100.0,1.35,CN,1663163665.0
553,boende,-0.2167,20.8667,24.45,81.0,100.0,1.5,CD,1663163665.0
554,ucluelet,48.9329,-125.5528,13.38,92.0,0.0,0.8,CA,1663163666.0
555,san pedro,14.35,121.0167,26.31,91.0,100.0,6.17,PH,1663163667.0
556,la romana,18.4273,-68.9728,29.2,79.0,20.0,3.09,DO,1663163668.0
557,tairua,-37.0167,175.85,8.12,81.0,7.0,2.23,NZ,1663163668.0
558,atchison,39.563,-95.1216,21.07,42.0,0.0,4.59,US,1663163668.0
559,cayenne,4.9333,-52.3333,31.02,62.0,75.0,4.12,GF,1663163599.0
560,ngunguru,-35.6167,174.5,8.95,76.0,32.0,2.79,NZ,1663163669.0
561,terrace bay,48.7834,-87.1,9.92,61.0,3.0,3.22,CA,1663163670.0
562,port lincoln,-34.7333,135.8667,12.15,66.0,1.0,7.2,AU,1663163670.0
563,morro agudo,-20.7314,-48.0578,27.59,45.0,74.0,3.87,BR,1663163671.0
564,omboue,-1.5746,9.2618,27.5,66.0,56.0,5.35,GA,1663163671.0
565,kitimat,54.0524,-128.6534,9.21,88.0,59.0,0.72,CA,1663163671.0
566,olavarria,-36.8927,-60.3225,13.9,67.0,0.0,2.3,AR,1663163671.0
567,itaqui,-29.1253,-56.5531,18.36,65.0,0.0,6.1,BR,1663163672.0
568,chernyshevskiy,63.0128,112.4714,5.07,87.0,96.0,4.18,RU,1663163672.0
569,okakarara,-20.5833,17.4333,31.81,8.0,5.0,3.38,NA,1663163673.0
570,novhorodka,48.3651,32.6578,17.9,52.0,100.0,5.32,UA,1663163673.0
571,gull lake,50.1001,-108.4847,13.54,40.0,100.0,4.25,CA,1663163674.0
572,indiaroba,-11.5192,-37.5117,28.66,55.0,10.0,3.02,BR,1663163674.0
573,samarai,-10.6167,150.6667,26.37,85.0,55.0,6.54,PG,1663163675.0
575,nemuro,43.3236,145.575,13.58,71.0,4.0,6.55,JP,1663163676.0
576,law,55.75,-3.8833,18.03,61.0,20.0,3.57,GB,1663163676.0
577,caronport,50.4501,-105.8179,10.11,43.0,100.0,4.55,CA,1663163676.0
578,sakai,34.5833,135.4667,28.97,74.0,98.0,1.54,JP,1663163676.0
579,storforshei,66.4043,14.5233,12.03,76.0,75.0,2.57,NO,1663163677.0
580,martapura,-3.4167,114.85,25.05,88.0,20.0,1.03,ID,1663163677.0
582,tevaitoa,-16.7833,-151.5,25.03,75.0,57.0,10.06,PF,1663163678.0
583,batagay-alyta,67.8006,130.4114,0.84,94.0,100.0,1.9,RU,1663163678.0
584,baker city,44.7749,-117.8344,14.8,93.0,60.0,1.09,US,1663163678.0
585,san borja,-14.8167,-66.85,23.22,91.0,96.0,2.35,BO,1663163679.0
586,mabaruma,8.2,-59.7833,30.1,66.0,19.0,1.52,GY,1663163679.0
587,chimoio,-19.1164,33.4833,21.92,88.0,75.0,5.36,MZ,1663163454.0
588,bandar-e lengeh,26.5579,54.8807,34.06,66.0,0.0,4.12,IR,1663163679.0
589,salalah,17.0151,54.0924,26.65,86.0,43.0,3.04,OM,1663163680.0
590,verkhniy landekh,56.8389,42.5994,10.97,96.0,100.0,4.1,RU,1663163680.0
591,guru har sahai,30.7167,74.4167,29.32,67.0,17.0,3.28,IN,1663163681.0
592,orlovskiy,46.8714,42.0592,19.85,44.0,92.0,6.16,RU,1663163681.0
593,longonjo,-12.9067,15.2533,31.92,18.0,93.0,2.39,AO,1663163681.0
594,buin,-33.7333,-70.75,19.37,42.0,9.0,0.62,CL,1663163682.0
596,tigil,57.8,158.6667,2.53,87.0,95.0,1.85,RU,1663163683.0
597,vostok,46.4856,135.8833,8.39,68.0,100.0,1.24,RU,1663163683.0
598,sooke,48.3746,-123.7276,15.25,88.0,0.0,12.35,CA,1663163683.0
599,sao jose da coroa grande,-8.8978,-35.1478,26.45,75.0,76.0,4.29,BR,1663163684.0
600,sfantu gheorghe,45.8667,25.7833,24.4,46.0,87.0,3.43,RO,1663163684.0
601,sumy,50.9216,34.8003,12.95,82.0,100.0,3.02,UA,1663163685.0
602,chekhov,55.1431,37.4711,13.38,83.0,97.0,2.25,RU,1663163685.0
603,siuna,13.7332,-84.7773,24.93,90.0,100.0,0.85,NI,1663163686.0
604,tshikapa,-6.4167,20.8,29.42,57.0,83.0,0.42,CD,1663163686.0
605,hagi,34.4,131.4167,26.75,91.0,10.0,0.96,JP,1663163643.0
606,nangomba,-10.9,38.5,31.91,23.0,76.0,2.79,TZ,1663163687.0
607,mountain home,43.133,-115.6912,12.71,94.0,0.0,4.63,US,1663163687.0
608,walvis bay,-22.9575,14.5053,16.16,79.0,37.0,3.29,NA,1663163688.0
609,codajas,-3.8367,-62.0569,33.68,43.0,47.0,1.97,BR,1663163688.0
610,tivaouane,14.9515,-16.8129,28.19,65.0,100.0,6.53,SN,1663163688.0
611,torres,-29.3353,-49.7269,21.01,69.0,42.0,4.52,BR,1663163689.0
612,la ronge,55.1001,-105.2842,11.14,82.0,100.0,4.12,CA,1663163689.0
